City_ID,City,Cloudiness,Country,Date,Humidity,Lat,Lng,Max Temp,Wind Speed,Current Description
0,Wuzhou,100,CN,2022-07-17 17:43:49,93,23.4833,111.3167,79.11,0.69,overcast clouds
1,Nome,0,US,2022-07-17 17:43:50,59,64.5011,-165.4064,52.16,5.75,clear sky
2,Los Llanos De Aridane,0,ES,2022-07-17 17:43:50,81,28.6585,-17.9182,73.13,16.11,clear sky
3,Marion,100,US,2022-07-17 17:43:51,90,39.7684,-86.1555,75.7,17.27,moderate rain
4,Kimbe,96,PG,2022-07-17 17:43:51,93,-5.5502,150.1429,74.84,3.96,overcast clouds
5,Cape Town,75,ZA,2022-07-17 17:40:27,87,-33.9258,18.4232,60.28,14.97,broken clouds
6,Busselton,100,AU,2022-07-17 17:43:51,93,-33.65,115.3333,53.15,13.13,overcast clouds
7,Mataura,86,NZ,2022-07-17 17:43:52,88,-46.1927,168.8643,51.48,5.84,overcast clouds
8,Mahebourg,40,MU,2022-07-17 17:43:52,64,-20.4081,57.7,70.09,19.57,scattered clouds
9,Mareeba,25,AU,2022-07-17 17:43:52,90,-17.0,145.4333,63.32,1.99,scattered clouds
10,Nikolskoye,98,RU,2022-07-17 17:43:53,94,59.7035,30.7861,58.91,5.99,overcast clouds
11,Cherskiy,71,RU,2022-07-17 17:43:53,63,68.75,161.3,35.42,13.13,broken clouds
12,Leningradskiy,60,RU,2022-07-17 17:43:53,82,69.3833,178.4167,31.98,21.79,broken clouds
13,Rikitea,100,PF,2022-07-17 17:43:54,78,-23.1203,-134.9692,74.35,17.54,overcast clouds
14,Pacific Grove,75,US,2022-07-17 17:43:54,91,36.6177,-121.9166,69.82,10.0,broken clouds
15,Bredasdorp,0,ZA,2022-07-17 17:43:55,86,-34.5322,20.0403,55.6,6.31,clear sky
16,Morondava,20,MG,2022-07-17 17:43:55,51,-20.2833,44.2833,75.16,12.59,few clouds
17,Namibe,100,AO,2022-07-17 17:43:55,88,-15.1961,12.1522,63.23,12.66,overcast clouds
18,Kamenka,41,RU,2022-07-17 17:43:55,92,51.3223,42.7678,65.17,0.89,moderate rain
19,Ancud,71,CL,2022-07-17 17:39:59,85,-41.8697,-73.8203,45.23,17.09,moderate rain
20,Kaitangata,90,NZ,2022-07-17 17:43:56,90,-46.2817,169.8464,42.12,3.15,overcast clouds
21,Eyl,51,SO,2022-07-17 17:43:56,73,7.9803,49.8164,78.17,32.53,broken clouds
22,Thompson,40,CA,2022-07-17 17:40:06,61,55.7435,-97.8558,77.16,4.61,scattered clouds
23,Jamestown,100,US,2022-07-17 17:43:57,70,42.097,-79.2353,78.39,6.91,overcast clouds
24,Presidencia Roque Saenz Pena,0,AR,2022-07-17 17:43:57,39,-26.7852,-60.4388,62.42,4.74,clear sky
25,Saskylakh,90,RU,2022-07-17 17:43:58,59,71.9167,114.0833,46.87,5.91,overcast clouds
26,Avarua,75,CK,2022-07-17 17:43:58,88,-21.2078,-159.775,69.85,4.61,light rain
27,Kapaa,100,US,2022-07-17 17:43:58,81,22.0752,-159.319,79.12,13.8,overcast clouds
28,Narsaq,9,GL,2022-07-17 17:43:59,65,60.9167,-46.05,59.22,9.64,clear sky
29,Tiksi,99,RU,2022-07-17 17:43:59,78,71.6872,128.8694,36.77,4.21,overcast clouds
30,Ilulissat,20,GL,2022-07-17 17:43:59,38,69.2167,-51.1,59.02,11.5,few clouds
31,Butaritari,99,KI,2022-07-17 17:43:59,74,3.0707,172.7902,81.77,10.4,overcast clouds
32,Punta Arenas,0,CL,2022-07-17 17:44:00,70,-53.15,-70.9167,37.51,11.5,clear sky
33,Tuktoyaktuk,75,CA,2022-07-17 17:44:00,88,69.4541,-133.0374,55.4,4.61,broken clouds
34,Kodiak,100,US,2022-07-17 17:44:01,59,57.79,-152.4072,60.31,5.75,overcast clouds
35,Leshukonskoye,100,RU,2022-07-17 17:44:01,63,64.8989,45.7622,63.79,2.73,overcast clouds
36,Codrington,96,AU,2022-07-17 17:44:02,67,-38.2667,141.9667,48.58,18.19,overcast clouds
37,Hambantota,100,LK,2022-07-17 17:44:03,78,6.1241,81.1185,80.65,16.49,overcast clouds
38,Spirit River,1,CA,2022-07-17 17:44:03,52,55.7833,-118.8361,66.63,9.93,clear sky
39,Ushuaia,40,AR,2022-07-17 17:41:04,52,-54.8,-68.3,42.46,5.75,scattered clouds
40,Grand-Santi,36,GF,2022-07-17 17:44:04,47,4.25,-54.3833,91.72,2.55,scattered clouds
41,Vryburg,0,ZA,2022-07-17 17:44:04,39,-26.9566,24.7284,56.08,6.08,clear sky
42,Hobyo,41,SO,2022-07-17 17:44:04,77,5.3505,48.5268,77.13,31.16,scattered clouds
43,Skjervoy,100,NO,2022-07-17 17:44:04,84,70.0311,20.9714,51.8,4.34,light rain
44,Belaya Gora,12,RU,2022-07-17 17:44:05,60,68.5333,146.4167,47.37,3.24,few clouds
45,Flin Flon,20,CA,2022-07-17 17:44:05,53,54.7682,-101.865,76.84,9.22,few clouds
46,Ambon,75,ID,2022-07-17 17:44:06,15,-3.6954,128.1814,77.23,4.61,broken clouds
47,Lebu,98,CL,2022-07-17 17:45:06,84,-37.6167,-73.65,51.31,12.88,overcast clouds
48,Gurupa,75,BR,2022-07-17 17:45:07,44,-1.405,-51.64,92.25,3.22,broken clouds
49,Yellowknife,75,CA,2022-07-17 17:45:07,82,62.456,-114.3525,63.12,23.02,broken clouds
50,Ahar,0,IR,2022-07-17 17:45:08,37,38.4774,47.0699,74.28,5.03,clear sky
51,Condoto,78,CO,2022-07-17 17:45:08,78,5.0935,-76.6497,83.32,4.5,broken clouds
52,Arrecife,20,ES,2022-07-17 17:45:08,65,28.963,-13.5477,76.98,23.02,few clouds
53,Miri,20,MY,2022-07-17 17:45:09,100,4.4148,114.0089,77.14,0.0,few clouds
54,Tasiilaq,88,GL,2022-07-17 17:45:09,78,65.6145,-37.6368,50.16,6.06,overcast clouds
55,Ojinaga,0,MX,2022-07-17 17:45:09,36,29.5667,-104.4167,95.41,6.91,clear sky
56,Puerto Escondido,100,MX,2022-07-17 17:45:10,63,15.85,-97.0667,85.26,4.9,overcast clouds
57,Nanortalik,51,GL,2022-07-17 17:45:10,82,60.1432,-45.2371,43.68,12.3,broken clouds
58,Katsuura,37,JP,2022-07-17 17:45:10,92,35.1333,140.3,76.6,14.25,scattered clouds
59,Salalah,100,OM,2022-07-17 17:42:26,94,17.0151,54.0924,78.89,8.05,overcast clouds
60,Shenjiamen,100,CN,2022-07-17 17:45:11,97,29.9576,122.298,76.51,4.83,overcast clouds
61,Puerto Ayora,74,EC,2022-07-17 17:45:11,87,-0.7393,-90.3518,75.16,5.01,broken clouds
62,Samana,20,DO,2022-07-17 17:45:12,74,19.2056,-69.3369,88.02,13.8,few clouds
63,Port Lincoln,99,AU,2022-07-17 17:45:12,53,-34.7333,135.8667,53.73,8.97,overcast clouds
64,Knyaze-Volkonskoye,100,RU,2022-07-17 17:45:13,90,48.4642,135.4567,68.34,2.46,overcast clouds
65,Akyab,69,MM,2022-07-17 17:45:13,82,20.15,92.9,82.6,11.99,broken clouds
66,Khatanga,100,RU,2022-07-17 17:45:13,62,71.9667,102.5,57.81,5.06,overcast clouds
67,Vaxjo,0,SE,2022-07-17 17:45:14,49,56.8777,14.8091,68.05,12.66,clear sky
68,Tiznit,1,MA,2022-07-17 17:45:14,47,29.5833,-9.5,82.42,5.79,clear sky
69,Tacuarembo,0,UY,2022-07-17 17:42:05,59,-31.7333,-55.9833,53.1,7.58,clear sky
70,Tombouctou,98,ML,2022-07-17 17:45:15,19,20.0,-3.0,105.31,7.34,overcast clouds
71,Mandan,0,US,2022-07-17 17:45:15,53,46.8267,-100.8896,95.36,8.05,clear sky
72,Salinopolis,50,BR,2022-07-17 17:45:15,71,-0.6136,-47.3561,83.7,11.21,scattered clouds
73,Mar Del Plata,0,AR,2022-07-17 17:45:16,40,-38.0023,-57.5575,60.1,19.57,clear sky
74,Albany,37,US,2022-07-17 17:42:53,45,42.6001,-73.9662,90.03,1.99,scattered clouds
75,Acapulco,94,MX,2022-07-17 17:45:16,62,16.8634,-99.8901,86.36,5.93,overcast clouds
76,Nakhon Thai,75,TH,2022-07-17 17:45:17,89,17.1006,100.8374,77.94,1.25,broken clouds
77,Bogorodskoye,100,RU,2022-07-17 17:45:17,74,56.55,37.8833,58.71,1.12,light rain
78,Atuona,21,PF,2022-07-17 17:45:18,77,-9.8,-139.0333,77.95,21.03,few clouds
79,Sao Joao Da Barra,87,BR,2022-07-17 17:45:10,71,-21.6403,-41.0511,87.89,17.76,overcast clouds
80,Castro,100,BR,2022-07-17 17:45:18,68,-24.7911,-50.0119,67.53,2.04,overcast clouds
81,New Norfolk,92,AU,2022-07-17 17:45:18,75,-42.7826,147.0587,38.7,4.0,overcast clouds
82,Regina,20,CA,2022-07-17 17:40:38,58,50.4501,-104.6178,88.03,5.75,few clouds
83,Komsomolskiy,0,UZ,2022-07-17 17:45:19,32,40.4272,71.7189,84.92,4.61,clear sky
84,North Bend,0,US,2022-07-17 17:45:19,78,43.4065,-124.2243,73.24,12.66,clear sky
85,Hobart,100,AU,2022-07-17 17:41:20,83,-42.8794,147.3294,39.06,8.05,overcast clouds
86,Bony,0,HU,2022-07-17 17:45:20,22,47.65,17.8698,79.05,8.05,clear sky
87,Quatre Cocos,53,MU,2022-07-17 17:45:20,65,-20.2078,57.7625,69.91,22.46,broken clouds
88,Meulaboh,66,ID,2022-07-17 17:45:21,86,4.1363,96.1285,77.72,2.75,broken clouds
89,Sabang,75,ID,2022-07-17 17:45:21,75,5.8933,95.3214,82.24,6.46,broken clouds
90,Bluff,87,NZ,2022-07-17 17:45:21,67,-46.6,168.3333,51.8,20.65,overcast clouds
91,Vila Do Maio,33,CV,2022-07-17 17:45:22,81,15.1333,-23.2167,83.19,20.96,scattered clouds
92,Vaini,20,TO,2022-07-17 17:45:22,83,-21.2,-175.2,73.56,6.91,few clouds
93,Provideniya,100,RU,2022-07-17 17:46:22,95,64.3833,-173.3,51.15,6.33,overcast clouds
94,Cidreira,14,BR,2022-07-17 17:46:23,62,-30.1811,-50.2056,57.7,12.8,few clouds
95,Buala,68,SB,2022-07-17 17:46:23,82,-8.145,159.5921,79.0,8.12,broken clouds
96,Guerrero Negro,3,MX,2022-07-17 17:46:24,51,27.9769,-114.0611,77.9,9.04,clear sky
97,Ixtapa,75,MX,2022-07-17 17:46:24,78,20.7,-105.2,84.22,3.44,broken clouds
98,Chuy,0,UY,2022-07-17 17:46:24,62,-33.6971,-53.4616,52.18,12.55,clear sky
99,Santo Antonio Do Ica,15,BR,2022-07-17 17:46:25,45,-3.1022,-67.9397,93.04,5.64,few clouds
100,Mossendjo,15,CG,2022-07-17 17:46:25,60,-2.9506,12.7261,74.14,3.11,few clouds
101,Lompoc,0,US,2022-07-17 17:46:26,84,34.6391,-120.4579,89.02,8.05,clear sky
102,Hilo,100,US,2022-07-17 17:45:23,89,19.7297,-155.09,87.28,5.75,overcast clouds
103,Mahajanga,40,MG,2022-07-17 17:46:26,50,-15.7167,46.3167,80.62,8.05,scattered clouds
104,Selikhino,100,RU,2022-07-17 17:46:27,76,50.3672,137.4996,59.79,4.56,overcast clouds
105,Batagay,97,RU,2022-07-17 17:46:27,72,67.6333,134.6333,53.55,1.57,overcast clouds
106,Saint-Georges,40,GD,2022-07-17 17:46:27,74,12.0564,-61.7485,85.68,24.16,scattered clouds
107,Imbituba,100,BR,2022-07-17 17:46:28,78,-28.24,-48.6703,66.85,11.99,overcast clouds
108,Kardailovo,95,RU,2022-07-17 17:46:29,76,51.5386,53.9042,70.43,12.39,overcast clouds
109,Lagoa,52,PT,2022-07-17 17:46:29,89,39.05,-27.9833,70.92,10.67,broken clouds
110,Kupang,0,ID,2022-07-17 17:46:29,81,-10.1667,123.5833,71.02,8.19,clear sky
111,Iquitos,75,PE,2022-07-17 17:44:53,74,-3.7481,-73.2472,84.24,2.3,broken clouds
112,Namatanai,36,PG,2022-07-17 17:46:29,80,-3.6667,152.4333,78.8,9.06,scattered clouds
113,Port Alfred,2,ZA,2022-07-17 17:43:06,33,-33.5906,26.891,73.58,13.98,clear sky
114,Arraial Do Cabo,0,BR,2022-07-17 17:46:30,54,-22.9661,-42.0278,87.76,10.36,clear sky
115,Takoradi,60,GH,2022-07-17 17:46:31,79,4.8845,-1.7554,75.78,11.18,broken clouds
116,Eureka,5,US,2022-07-17 17:42:56,83,40.8021,-124.1637,59.25,8.77,clear sky
117,The Valley,20,AI,2022-07-17 17:46:32,62,18.217,-63.0578,89.46,18.41,few clouds
118,La Paz,20,BO,2022-07-17 17:44:23,23,-16.5,-68.15,62.58,13.8,few clouds
119,Tobermory,79,CA,2022-07-17 17:46:32,76,45.2501,-81.6665,67.87,8.59,broken clouds
120,Cedar City,0,US,2022-07-17 17:42:52,26,37.6775,-113.0619,87.4,0.0,clear sky
121,Baker City,0,US,2022-07-17 17:46:33,44,44.7749,-117.8344,75.6,8.05,clear sky
122,Praia,20,CV,2022-07-17 17:46:33,61,14.9215,-23.5087,82.94,21.85,few clouds
123,Huarmey,13,PE,2022-07-17 17:46:34,69,-10.0681,-78.1522,67.84,10.76,few clouds
124,Kutum,70,SD,2022-07-17 17:46:34,39,14.2,24.6667,83.77,5.95,broken clouds
125,Cockburn Town,40,TC,2022-07-17 17:42:05,66,21.4612,-71.1419,87.76,20.71,scattered clouds
126,Bandarbeyla,13,SO,2022-07-17 17:43:14,80,9.4942,50.8122,76.84,35.77,few clouds
127,Prince Rupert,40,CA,2022-07-17 17:42:02,88,54.3161,-130.3201,55.49,3.44,scattered clouds
128,Hermanus,0,ZA,2022-07-17 17:46:35,81,-34.4187,19.2345,60.8,8.52,clear sky
129,Kruisfontein,1,ZA,2022-07-17 17:46:35,27,-34.0033,24.7314,73.89,9.75,clear sky
130,Barrow,100,US,2022-07-17 17:45:32,93,71.2906,-156.7887,35.62,18.41,overcast clouds
131,Tiarei,69,PF,2022-07-17 17:46:35,71,-17.5333,-149.3333,71.62,15.7,broken clouds
132,Beidao,82,CN,2022-07-17 17:46:36,63,34.5686,105.8933,67.6,1.79,broken clouds
133,Biltine,91,TD,2022-07-17 17:46:36,90,14.5333,20.9167,75.25,18.79,heavy intensity rain
134,Abong Mbang,99,CM,2022-07-17 17:46:37,91,3.9833,13.1833,69.87,2.48,overcast clouds
135,Bonavista,13,CA,2022-07-17 17:46:37,65,48.6499,-53.1147,65.17,19.06,few clouds
136,Bengkulu,73,ID,2022-07-17 17:46:37,90,-3.8004,102.2655,76.44,3.38,broken clouds
137,Iranshahr,0,IR,2022-07-17 17:46:38,29,27.2025,60.6848,102.54,6.91,clear sky
138,La Rioja,37,ES,2022-07-17 17:43:01,27,42.25,-2.5,96.58,5.55,scattered clouds
139,Chokurdakh,16,RU,2022-07-17 17:45:23,67,70.6333,147.9167,40.06,11.45,few clouds
140,Amuntai,100,ID,2022-07-17 17:47:38,95,-2.4177,115.2494,71.38,0.94,overcast clouds
141,Altay,31,CN,2022-07-17 17:44:50,48,47.8667,88.1167,66.9,5.97,scattered clouds
142,Tres Arroyos,33,AR,2022-07-17 17:47:39,32,-38.3739,-60.2798,58.12,21.85,scattered clouds
143,Yumen,98,CN,2022-07-17 17:47:39,37,40.2833,97.2,76.66,10.25,overcast clouds
144,Santo Angelo,63,BR,2022-07-17 17:47:39,66,-28.2992,-54.2631,55.15,0.85,broken clouds
145,Aklavik,40,CA,2022-07-17 17:46:47,100,68.2191,-135.0107,57.2,2.3,scattered clouds
146,Pitimbu,50,BR,2022-07-17 17:47:39,80,-7.4706,-34.8086,77.59,18.14,scattered clouds
147,Tutin,31,RS,2022-07-17 17:47:40,59,42.9903,20.3314,65.03,3.18,scattered clouds
148,Mackay,7,AU,2022-07-17 17:47:40,90,-21.15,149.2,62.69,8.79,clear sky
149,Potsdam,25,DE,2022-07-17 17:47:41,38,52.3989,13.0657,75.87,3.71,scattered clouds
150,San Patricio,82,US,2022-07-17 17:47:41,36,28.017,-97.5169,95.07,12.01,broken clouds
151,Ponta Do Sol,35,PT,2022-07-17 17:46:43,72,32.6667,-17.1,78.12,9.13,scattered clouds
152,Saint-Philippe,87,RE,2022-07-17 17:47:42,78,-21.3585,55.7679,67.59,16.51,light rain
153,Mehamn,40,NO,2022-07-17 17:47:42,76,71.0357,27.8492,55.35,6.91,scattered clouds
154,Treia,13,IT,2022-07-17 17:47:42,46,43.3106,13.3115,85.95,3.87,few clouds
155,Puerto Quijarro,87,BO,2022-07-17 17:47:43,40,-17.7833,-57.7667,82.83,3.98,overcast clouds
156,Morehead,100,US,2022-07-17 17:47:43,78,37.2711,-87.1764,78.55,3.44,overcast clouds
157,Cairns,100,AU,2022-07-17 17:47:43,85,-16.9167,145.7667,67.95,6.91,overcast clouds
158,Margherita,81,IN,2022-07-17 17:47:44,97,27.2833,95.6833,77.76,2.62,broken clouds
159,Isangel,84,VU,2022-07-17 17:47:44,86,-19.55,169.2667,74.19,15.08,broken clouds
160,Ribeira Grande,20,PT,2022-07-17 17:45:34,73,38.5167,-28.7,77.4,18.41,few clouds
161,Brigantine,75,US,2022-07-17 17:43:56,69,39.4101,-74.3646,88.03,8.05,broken clouds
162,Port Hedland,0,AU,2022-07-17 17:47:36,62,-20.3167,118.5667,55.45,5.75,clear sky
163,Ribas Do Rio Pardo,96,BR,2022-07-17 17:47:44,42,-20.4431,-53.7592,80.98,5.48,overcast clouds
164,Ostrovnoy,38,RU,2022-07-17 17:47:42,67,68.0531,39.5131,61.07,11.32,scattered clouds
165,Sanary-Sur-Mer,0,FR,2022-07-17 17:47:45,74,43.1178,5.8001,87.64,4.0,clear sky
166,Esperance,100,AU,2022-07-17 17:47:46,86,-33.8667,121.9,53.26,10.09,light rain
167,Hailar,51,CN,2022-07-17 17:47:46,90,49.2,119.7,61.68,0.27,broken clouds
168,Bastia,0,FR,2022-07-17 17:47:46,76,42.6667,9.3333,84.0,5.75,clear sky
169,Riyadh,89,SA,2022-07-17 17:47:46,11,24.6877,46.7219,100.54,6.4,overcast clouds
170,Zyryanka,42,RU,2022-07-17 17:47:47,70,65.75,150.85,50.25,0.78,scattered clouds
171,Saldanha,0,ZA,2022-07-17 17:46:19,93,-33.0117,17.9442,59.05,7.96,clear sky
172,Luderitz,9,NA,2022-07-17 17:47:47,41,-26.6481,15.1594,67.75,5.26,clear sky
173,Talnakh,95,RU,2022-07-17 17:46:28,71,69.4865,88.3972,58.21,3.85,overcast clouds
174,Chegdomyn,71,RU,2022-07-17 17:47:48,96,51.1167,133.0167,58.57,2.66,broken clouds
175,Mamakan,100,RU,2022-07-17 17:47:48,96,57.8161,114.0028,57.06,1.79,overcast clouds
176,Port Elizabeth,0,ZA,2022-07-17 17:47:49,52,-33.918,25.5701,76.1,2.3,clear sky
177,Hithadhoo,100,MV,2022-07-17 17:45:27,90,-0.6,73.0833,76.91,28.27,overcast clouds
178,Pochutla,100,MX,2022-07-17 17:45:54,55,15.7432,-96.4661,88.83,4.83,overcast clouds
179,Mayo,0,US,2022-07-17 17:43:07,78,38.8876,-76.5119,87.67,8.05,clear sky
180,San Mateo Ixtatan,26,GT,2022-07-17 17:47:49,50,15.8319,-91.4781,65.14,6.82,scattered clouds
181,Fortuna,37,US,2022-07-17 17:47:50,76,40.5982,-124.1573,58.98,8.68,scattered clouds
182,Mitchell,100,US,2022-07-17 17:47:50,83,43.7094,-98.0298,75.18,4.61,overcast clouds
183,Matara,100,LK,2022-07-17 17:46:12,85,5.9485,80.5353,79.0,9.06,overcast clouds
184,Marawi,100,PH,2022-07-17 17:47:50,93,7.9986,124.2928,69.35,3.04,overcast clouds
185,Qaqortoq,10,GL,2022-07-17 17:47:50,76,60.7167,-46.0333,46.92,10.65,clear sky
186,Ueno,65,JP,2022-07-17 17:47:51,94,34.75,136.1333,79.43,3.44,moderate rain
187,Mount Gambier,93,AU,2022-07-17 17:45:49,78,-37.8333,140.7667,46.36,9.89,overcast clouds
188,Labuan,20,MY,2022-07-17 17:48:51,94,5.2767,115.2417,77.36,0.0,light rain
189,Lucea,10,JM,2022-07-17 17:48:51,73,18.451,-78.1736,87.66,12.37,clear sky
190,Souillac,40,MU,2022-07-17 17:45:48,64,-20.5167,57.5167,70.18,19.57,scattered clouds
191,Tilichiki,80,RU,2022-07-17 17:48:52,89,60.4667,166.1,53.24,5.93,broken clouds
192,Porto Novo,57,BJ,2022-07-17 17:48:52,80,6.4965,2.6036,80.42,8.9,broken clouds
193,Bambous Virieux,40,MU,2022-07-17 17:45:38,64,-20.3428,57.7575,70.05,19.57,scattered clouds
194,Surbo,0,IT,2022-07-17 17:48:53,38,40.3994,18.1331,91.45,11.5,clear sky
195,Bethel,20,US,2022-07-17 17:48:16,62,41.3712,-73.414,86.52,6.91,few clouds
196,Huilong,100,CN,2022-07-17 17:48:53,94,31.8111,121.655,81.93,9.64,moderate rain
197,Maniitsoq,100,GL,2022-07-17 17:48:53,94,65.4167,-52.9,42.44,15.23,moderate rain
198,Torbay,100,CA,2022-07-17 17:45:29,59,47.6666,-52.7314,78.76,10.36,overcast clouds
199,Camacha,20,PT,2022-07-17 17:48:54,64,33.0833,-16.3333,72.82,16.11,few clouds
200,Elizabeth City,0,US,2022-07-17 17:48:54,71,36.2946,-76.2511,91.99,12.66,clear sky
201,Myitkyina,45,MM,2022-07-17 17:48:54,98,25.3833,97.4,76.23,1.7,scattered clouds
202,Mildura,77,AU,2022-07-17 17:48:55,93,-34.2,142.15,41.07,11.12,broken clouds
203,Itoman,75,JP,2022-07-17 17:45:53,89,26.1247,127.6694,83.17,17.27,light intensity shower rain
204,Padang,84,ID,2022-07-17 17:48:55,81,-0.9492,100.3543,73.45,3.62,broken clouds
205,Antropovo,90,RU,2022-07-17 17:48:55,85,58.3988,43.0066,58.41,3.51,overcast clouds
206,Bonfim,65,BR,2022-07-17 17:48:56,59,3.0833,-59.95,88.14,5.08,broken clouds
207,Tecoanapa,100,MX,2022-07-17 17:48:56,62,16.5167,-98.75,85.33,6.53,overcast clouds
208,Guayaramerin,40,BO,2022-07-17 17:48:57,49,-10.8368,-65.3614,93.25,3.44,scattered clouds
209,Pisco,3,PE,2022-07-17 17:48:57,72,-13.7,-76.2167,64.02,9.22,haze
210,Shingu,100,JP,2022-07-17 17:48:57,87,33.7333,135.9833,74.25,5.3,overcast clouds
211,Jibuti,100,DJ,2022-07-17 17:48:57,31,11.5,42.5,93.38,3.62,light rain
212,Makokou,94,GA,2022-07-17 17:48:58,69,0.5738,12.8642,74.91,2.98,overcast clouds
213,Dikson,65,RU,2022-07-17 17:48:58,79,73.5069,80.5464,45.1,8.77,broken clouds
214,Ust-Tarka,84,RU,2022-07-17 17:48:58,80,55.5672,75.705,55.87,7.67,broken clouds
215,Taoudenni,70,ML,2022-07-17 17:48:40,9,22.6783,-3.9836,112.41,14.45,broken clouds
216,Shellbrook,89,CA,2022-07-17 17:48:59,62,53.2168,-106.4011,72.63,8.23,overcast clouds
217,Monrovia,100,LR,2022-07-17 17:48:44,85,6.3005,-10.7969,80.37,13.0,light rain
218,Yarmouth,40,US,2022-07-17 17:48:59,73,41.7057,-70.2286,86.65,16.11,scattered clouds
219,Byadgi,100,IN,2022-07-17 17:49:00,92,14.6833,75.4833,71.71,13.53,moderate rain
220,Port Blair,75,IN,2022-07-17 17:47:59,94,11.6667,92.75,78.84,2.3,mist
221,Georgetown,20,MY,2022-07-17 17:45:12,90,5.4112,100.3354,84.88,2.3,few clouds
222,Mata,29,PT,2022-07-17 17:49:00,20,40.683,-7.4592,87.93,12.39,scattered clouds
223,Juneau,100,US,2022-07-17 17:49:01,98,58.3019,-134.4197,55.22,13.8,light rain
224,Khani,87,GE,2022-07-17 17:49:01,99,41.9563,42.9566,65.77,2.84,overcast clouds
225,Mindelo,20,CV,2022-07-17 17:49:01,57,16.8901,-24.9804,81.95,13.8,few clouds
226,Sorland,80,NO,2022-07-17 17:49:02,77,67.667,12.6934,51.66,14.47,broken clouds
227,Uzventis,64,LT,2022-07-17 17:49:02,69,55.7803,22.6547,60.87,9.46,broken clouds
228,Kavieng,71,PG,2022-07-17 17:48:51,80,-2.5744,150.7967,81.86,14.7,light rain
229,Lasa,19,IT,2022-07-17 17:49:02,68,46.6166,10.7002,85.08,0.67,few clouds
230,Conceicao Do Araguaia,3,BR,2022-07-17 17:49:03,19,-8.2578,-49.2647,97.77,6.13,clear sky
231,Carnarvon,23,AU,2022-07-17 17:49:03,79,-24.8667,113.6333,67.15,11.54,few clouds
232,East London,0,ZA,2022-07-17 17:46:43,52,-33.0153,27.9116,67.14,5.75,clear sky
233,Grand Gaube,41,MU,2022-07-17 17:45:36,66,-20.0064,57.6608,70.2,8.99,scattered clouds
234,Coruripe,30,BR,2022-07-17 17:50:04,68,-10.1256,-36.1756,77.86,9.42,scattered clouds
235,Laredo,0,US,2022-07-17 17:46:48,30,27.5064,-99.5075,97.09,14.97,clear sky
236,Sal Rei,75,CV,2022-07-17 17:50:04,69,16.1833,-22.9167,79.0,19.57,broken clouds
237,Hyeres,0,FR,2022-07-17 17:50:04,62,43.1167,6.1167,93.85,8.05,clear sky
238,Hlotse,0,LS,2022-07-17 17:50:05,33,-28.8718,28.045,47.84,1.34,clear sky
239,Clyde River,100,CA,2022-07-17 17:45:42,87,70.4692,-68.5914,35.83,13.8,overcast clouds
240,Mahibadhoo,99,MV,2022-07-17 17:50:05,81,3.7833,72.9667,81.99,16.8,moderate rain
241,Bang Saphan,77,TH,2022-07-17 17:50:06,92,11.2126,99.5117,77.04,5.06,broken clouds
242,Victoria,100,HK,2022-07-17 17:47:32,81,22.2855,114.1577,87.33,11.01,overcast clouds
243,Zhuanghe,1,CN,2022-07-17 17:50:06,94,39.7008,122.9911,69.17,5.57,clear sky
244,Burnie,47,AU,2022-07-17 17:50:07,70,-41.0667,145.9167,39.94,14.25,scattered clouds
245,Chimay,32,BE,2022-07-17 17:50:08,32,50.0486,4.3171,79.23,5.66,scattered clouds
246,Alta Floresta,40,BR,2022-07-17 17:50:08,23,-9.8756,-56.0861,98.42,12.66,scattered clouds
247,Samarai,33,PG,2022-07-17 17:45:26,84,-10.6167,150.6667,78.84,8.32,scattered clouds
248,Benjamin Constant,40,BR,2022-07-17 17:50:09,66,-4.3831,-70.0311,87.93,4.61,light rain
249,Panaba,14,MX,2022-07-17 17:50:09,36,21.2833,-88.2667,96.44,3.22,few clouds
250,Ballarat,78,AU,2022-07-17 17:47:33,95,-37.5662,143.8496,37.51,7.14,light rain
251,Sitka,100,US,2022-07-17 17:46:45,88,57.0531,-135.33,55.29,9.22,moderate rain
252,Cabayaoasan,84,PH,2022-07-17 17:50:10,92,15.6719,120.5653,76.91,1.19,broken clouds
253,Pangai,75,TO,2022-07-17 17:50:11,88,-19.8,-174.35,75.31,20.71,light intensity shower rain
254,Qaanaaq,67,GL,2022-07-17 17:49:29,58,77.484,-69.3632,46.33,0.72,broken clouds
255,Tautira,62,PF,2022-07-17 17:50:11,72,-17.7333,-149.15,74.89,14.72,broken clouds
256,Grand Baie,36,MU,2022-07-17 17:50:12,67,-20.0182,57.5802,70.27,5.01,scattered clouds
257,Rehoboth,8,NA,2022-07-17 17:50:12,27,-23.3167,17.0833,58.28,6.71,clear sky
258,Upernavik,53,GL,2022-07-17 17:46:35,86,72.7868,-56.1549,41.18,15.14,broken clouds
259,Coihaique,75,CL,2022-07-17 17:48:01,61,-45.5752,-72.0662,42.75,4.61,broken clouds
260,Tuatapere,61,NZ,2022-07-17 17:50:13,61,-46.1333,167.6833,55.13,12.08,broken clouds
261,Somerset West,0,ZA,2022-07-17 17:49:47,82,-34.084,18.8211,60.22,8.01,clear sky
262,Miguelopolis,39,BR,2022-07-17 17:50:13,26,-20.1794,-48.0319,89.42,4.23,scattered clouds
263,Ratangarh,59,IN,2022-07-17 17:50:14,52,28.0833,74.6,91.56,4.81,heavy intensity rain
264,Paka,70,MY,2022-07-17 17:50:14,94,4.6374,103.4368,78.73,0.0,broken clouds
265,Vigrestad,100,NO,2022-07-17 17:50:14,96,58.5667,5.7,58.96,15.82,light rain
266,Naantali,75,FI,2022-07-17 17:50:15,62,60.4674,22.0243,59.11,5.75,broken clouds
267,Santa Rosa,86,PH,2022-07-17 17:50:15,95,14.3122,121.1114,78.12,1.99,overcast clouds
268,Te Anau,99,NZ,2022-07-17 17:50:15,84,-45.4167,167.7167,51.51,12.66,light rain
269,Plettenberg Bay,0,ZA,2022-07-17 17:50:15,34,-34.0527,23.3716,73.9,12.95,clear sky
270,Mbandaka,87,CD,2022-07-17 17:50:16,95,0.0487,18.2603,71.2,3.13,light rain
271,Manta,75,EC,2022-07-17 17:50:16,78,-0.95,-80.7333,76.78,11.5,broken clouds
272,Galle,100,LK,2022-07-17 17:46:11,85,6.0367,80.217,79.3,9.26,overcast clouds
273,Villa Bruzual,29,VE,2022-07-17 17:50:17,68,9.3328,-69.1208,86.41,0.81,scattered clouds
274,Erenhot,78,CN,2022-07-17 17:50:17,26,43.6475,111.9767,71.31,5.79,broken clouds
275,San Bartolome De Tirajana,40,ES,2022-07-17 17:50:17,67,27.9248,-15.5733,68.32,34.52,scattered clouds
276,Cayenne,20,GF,2022-07-17 17:50:18,1,4.9333,-52.3333,87.84,8.05,few clouds
277,Grindavik,75,IS,2022-07-17 17:50:18,82,63.8424,-22.4338,52.27,11.5,broken clouds
278,San Quintin,17,MX,2022-07-17 17:51:19,67,30.4833,-115.95,74.46,8.68,few clouds
279,Pahrump,78,US,2022-07-17 17:51:19,15,36.2083,-115.9839,91.45,8.32,light rain
280,Sivaki,99,RU,2022-07-17 17:51:19,97,52.6333,126.75,63.43,3.33,overcast clouds
281,Saint George,0,US,2022-07-17 17:46:37,23,37.1041,-113.5841,101.79,8.99,clear sky
282,Winnemucca,0,US,2022-07-17 17:51:20,11,40.973,-117.7357,91.45,9.22,clear sky
283,Veracruz,92,MX,2022-07-17 17:50:26,58,19.3333,-96.6667,82.94,5.21,overcast clouds
284,Todos Santos,7,MX,2022-07-17 17:51:20,85,23.45,-110.2167,76.66,7.31,clear sky
285,Maragogi,19,BR,2022-07-17 17:51:21,77,-9.0122,-35.2225,77.02,12.97,few clouds
286,Hofn,20,IS,2022-07-17 17:51:21,63,64.2539,-15.2082,62.62,11.5,few clouds
287,Dalvik,100,IS,2022-07-17 17:51:22,93,65.9702,-18.5286,48.13,5.7,overcast clouds
288,Dingle,100,PH,2022-07-17 17:51:22,94,10.9995,122.6711,75.09,1.95,overcast clouds
289,Nederland,20,US,2022-07-17 17:51:22,58,29.9744,-93.9924,95.23,5.75,few clouds
290,Vila Velha,20,BR,2022-07-17 17:46:54,73,-20.3297,-40.2925,85.95,11.5,few clouds
291,Vangaindrano,12,MG,2022-07-17 17:51:23,86,-23.35,47.6,64.15,5.97,light rain
292,Asau,30,RO,2022-07-17 17:46:37,49,46.4333,26.4,69.28,8.39,scattered clouds
293,Yar-Sale,78,RU,2022-07-17 17:51:23,68,66.8333,70.8333,58.46,3.0,broken clouds
294,Derbent,0,RU,2022-07-17 17:51:23,50,42.0678,48.2899,83.66,5.37,clear sky
295,Uglekamensk,100,RU,2022-07-17 17:51:23,94,43.2172,133.2303,60.98,2.35,moderate rain
296,Atar,8,MR,2022-07-17 17:51:24,6,20.5169,-13.0499,113.68,18.19,clear sky
297,Monroe,75,US,2022-07-17 17:50:15,59,43.1501,-77.6831,89.46,12.66,broken clouds
298,Ulaangom,72,MN,2022-07-17 17:51:24,45,49.9811,92.0667,65.84,3.29,broken clouds
299,Axim,63,GH,2022-07-17 17:51:25,76,4.8699,-2.2405,76.24,9.44,broken clouds
300,Qasigiannguit,21,GL,2022-07-17 17:51:25,61,68.8193,-51.1922,46.38,1.28,few clouds
301,Ayan,98,RU,2022-07-17 17:51:25,93,56.45,138.1667,57.38,10.4,overcast clouds
302,Burdur,20,TR,2022-07-17 17:51:26,34,37.7203,30.2908,79.5,17.27,few clouds
303,Kristianstad,55,SE,2022-07-17 17:51:26,63,56.0313,14.1524,66.94,14.97,broken clouds
304,Soc Trang,73,VN,2022-07-17 17:47:20,91,9.6033,105.98,78.08,5.3,broken clouds
305,Pouebo,32,NC,2022-07-17 17:51:27,81,-20.4,164.5667,68.94,12.68,scattered clouds
306,Luangwa,12,ZM,2022-07-17 17:51:27,60,-15.6167,30.4167,64.54,3.83,few clouds
307,Hit,0,IQ,2022-07-17 17:51:28,13,33.6416,42.8251,97.03,12.03,clear sky
308,Aljezur,57,PT,2022-07-17 17:51:28,72,37.3191,-8.8033,72.3,9.73,broken clouds
309,Kinsale,0,IE,2022-07-17 17:51:29,73,51.7075,-8.5306,71.24,9.22,clear sky
310,Moose Factory,40,CA,2022-07-17 17:46:44,61,51.2585,-80.6094,80.6,11.5,scattered clouds
311,Flinders,43,AU,2022-07-17 17:51:29,70,-34.5833,150.8552,53.26,5.99,scattered clouds
312,Haines Junction,100,CA,2022-07-17 17:51:30,55,60.7522,-137.5108,58.95,10.36,overcast clouds
313,Nhulunbuy,40,AU,2022-07-17 17:51:30,94,-12.2333,136.7667,70.41,6.91,scattered clouds
314,Baruun-Urt,2,MN,2022-07-17 17:51:30,56,46.6806,113.2792,59.9,4.63,clear sky
315,Herrin,100,US,2022-07-17 17:51:31,93,37.8031,-89.0276,77.0,1.01,overcast clouds
316,Avera,0,US,2022-07-17 17:51:31,42,33.194,-82.5271,89.65,6.17,clear sky
317,Kununurra,20,AU,2022-07-17 17:51:32,76,-15.7667,128.7333,53.58,0.0,few clouds
318,Kodinsk,72,RU,2022-07-17 17:51:32,84,58.6881,99.1844,54.99,4.09,broken clouds
319,Coahuayana,100,MX,2022-07-17 17:51:32,54,18.7333,-103.6833,90.21,3.15,overcast clouds
320,Longyearbyen,75,SJ,2022-07-17 17:51:33,76,78.2186,15.6401,49.84,1.14,broken clouds
321,Saint-Leu,47,RE,2022-07-17 17:51:33,73,-21.15,55.2833,69.31,11.34,scattered clouds
322,Doume,90,CM,2022-07-17 17:51:33,96,4.2333,13.45,69.76,2.75,light rain
323,Ossora,22,RU,2022-07-17 17:52:34,84,59.2353,163.0719,59.5,4.36,few clouds
324,Kyaikto,57,MM,2022-07-17 17:52:34,87,17.3,97.0167,79.56,3.85,broken clouds
325,Berezovka,62,BY,2022-07-17 17:52:34,86,53.7214,25.4993,56.77,6.73,broken clouds
326,Vao,93,NC,2022-07-17 17:52:35,74,-22.6667,167.4833,70.32,18.77,overcast clouds
327,Nyurba,98,RU,2022-07-17 17:52:35,96,63.2842,118.3319,56.01,3.85,overcast clouds
328,Qingyuan,100,CN,2022-07-17 17:52:35,90,23.7,113.0333,85.98,3.15,overcast clouds
329,Amga,23,RU,2022-07-17 17:52:36,72,60.8953,131.9608,66.02,2.33,few clouds
330,Goderich,100,CA,2022-07-17 17:52:36,73,43.7501,-81.7165,73.72,8.05,overcast clouds
331,Bilma,73,NE,2022-07-17 17:47:55,28,18.6853,12.9164,94.12,9.4,broken clouds
332,Comodoro Rivadavia,0,AR,2022-07-17 17:52:37,46,-45.8667,-67.5,48.06,24.16,clear sky
333,Tahta,4,EG,2022-07-17 17:52:37,17,26.7693,31.5021,92.48,9.64,clear sky
334,Russell,20,US,2022-07-17 17:52:37,58,32.3502,-85.1999,90.91,3.44,few clouds
335,Tibu,68,CO,2022-07-17 17:52:38,42,8.639,-72.7358,94.77,3.98,broken clouds
336,Scarborough,97,GB,2022-07-17 17:52:38,57,54.2797,-0.4044,85.57,8.99,overcast clouds
337,Goryachegorsk,43,RU,2022-07-17 17:52:38,93,55.4053,88.9154,51.22,10.07,scattered clouds
338,Coquimbo,0,CL,2022-07-17 17:48:18,62,-29.9533,-71.3436,56.93,11.5,clear sky
339,Kushima,100,JP,2022-07-17 17:52:39,80,31.4583,131.2333,75.4,3.74,overcast clouds
340,Fairbanks,75,US,2022-07-17 17:52:39,77,64.8378,-147.7164,60.1,4.61,light rain
341,Puerto Colombia,87,CO,2022-07-17 17:52:39,77,10.9878,-74.9547,87.89,16.22,overcast clouds
342,Carmen,99,MX,2022-07-17 17:48:40,60,18.6333,-91.8333,85.41,6.15,overcast clouds
343,Kavaratti,100,IN,2022-07-17 17:52:40,76,10.5669,72.642,82.36,17.85,overcast clouds
344,Barcelos,33,PT,2022-07-17 17:52:40,53,41.5388,-8.6151,86.92,6.55,scattered clouds
345,Norman Wells,75,CA,2022-07-17 17:52:40,77,65.282,-126.8329,64.44,5.75,broken clouds
346,Windhoek,2,NA,2022-07-17 17:52:40,27,-22.5594,17.0832,62.8,3.44,clear sky
347,Kargasok,46,RU,2022-07-17 17:52:41,93,59.0556,80.8572,52.25,8.99,scattered clouds
348,Tessalit,65,ML,2022-07-17 17:52:41,31,20.1986,1.0114,92.37,16.6,light rain
349,Bage,100,BR,2022-07-17 17:52:41,66,-31.3314,-54.1069,49.78,10.36,overcast clouds
350,Kolosovka,90,RU,2022-07-17 17:52:42,74,56.4678,73.611,57.33,6.98,overcast clouds
351,Hualmay,29,PE,2022-07-17 17:52:42,71,-11.0964,-77.6139,65.82,9.6,scattered clouds
352,Oranjemund,6,NA,2022-07-17 17:52:42,67,-28.55,16.4333,60.31,0.6,clear sky
353,Severo-Kurilsk,100,RU,2022-07-17 17:52:43,97,50.6789,156.125,53.06,0.98,overcast clouds
354,Santa Isabel Do Rio Negro,69,BR,2022-07-17 17:52:43,49,-0.4139,-65.0192,90.81,5.48,broken clouds
355,Joshimath,54,IN,2022-07-17 17:52:43,89,30.5667,79.5667,71.69,0.94,broken clouds
356,Homer,100,US,2022-07-17 17:52:44,92,59.6425,-151.5483,53.49,13.0,overcast clouds
357,Bom Jesus Da Lapa,0,BR,2022-07-17 17:52:44,15,-13.255,-43.4181,90.88,6.78,clear sky
358,Vanimo,100,PG,2022-07-17 17:52:44,89,-2.6741,141.3028,75.6,3.65,overcast clouds
359,Moron,0,AR,2022-07-17 17:52:44,50,-34.6534,-58.6198,59.02,10.92,clear sky
360,Abakaliki,99,NG,2022-07-17 17:52:45,74,6.3163,8.1169,78.19,3.44,overcast clouds
361,Hazorasp,0,UZ,2022-07-17 17:52:45,10,41.3194,61.0742,84.04,16.06,clear sky
362,Buraydah,67,SA,2022-07-17 17:52:45,9,26.326,43.975,99.05,8.57,broken clouds
363,Dubbo,40,AU,2022-07-17 17:52:46,81,-32.25,148.6167,41.13,4.61,scattered clouds
364,Nantucket,100,US,2022-07-17 17:51:20,87,41.2835,-70.0995,82.51,10.36,overcast clouds
365,Bathsheba,20,BB,2022-07-17 17:52:46,78,13.2167,-59.5167,88.41,25.32,few clouds
366,Dunedin,93,NZ,2022-07-17 17:52:46,71,-45.8742,170.5036,52.39,10.6,overcast clouds
367,Vestmannaeyjar,20,IS,2022-07-17 17:52:47,87,63.4427,-20.2734,52.79,16.11,few clouds
368,Peleduy,100,RU,2022-07-17 17:48:54,77,59.6289,112.7406,56.16,3.49,overcast clouds
369,Sicuani,30,PE,2022-07-17 17:52:47,28,-14.2694,-71.2261,59.94,6.55,scattered clouds
370,Verkhnevilyuysk,100,RU,2022-07-17 17:52:48,98,63.4453,120.3167,61.12,3.91,overcast clouds
371,Punta De Piedra,82,VE,2022-07-17 17:53:48,70,7.6176,-71.4916,84.92,2.55,broken clouds
372,Linxia,100,CN,2022-07-17 17:53:49,72,35.6003,103.2064,59.58,0.63,overcast clouds
373,Abadan,0,IR,2022-07-17 17:53:49,16,30.3392,48.3043,103.95,4.61,clear sky
374,Vila Franca Do Campo,47,PT,2022-07-17 17:53:49,71,37.7167,-25.4333,70.21,5.91,scattered clouds
375,Waipawa,96,NZ,2022-07-17 17:53:50,72,-41.4122,175.5153,50.94,22.15,overcast clouds
376,Svetlogorsk,79,BY,2022-07-17 17:53:50,92,52.6333,29.7333,55.27,6.91,broken clouds
377,Comacchio,3,IT,2022-07-17 17:53:51,51,44.6975,12.1858,91.49,6.8,clear sky
378,Harnosand,93,SE,2022-07-17 17:53:51,57,62.6323,17.9379,60.82,6.35,overcast clouds
379,Paamiut,100,GL,2022-07-17 17:53:51,90,61.994,-49.6678,42.08,7.16,overcast clouds
380,Amahai,98,ID,2022-07-17 17:53:51,91,-3.3333,128.9167,76.68,8.28,overcast clouds
381,Killybegs,100,IE,2022-07-17 17:53:52,76,54.6333,-8.45,69.51,6.6,overcast clouds
382,Port Hardy,100,CA,2022-07-17 17:53:52,88,50.6996,-127.4199,55.58,8.05,light intensity drizzle
383,Abu Samrah,0,SY,2022-07-17 17:50:41,34,35.3029,37.1841,85.48,11.77,clear sky
384,Wanaka,100,NZ,2022-07-17 17:53:53,97,-44.7,169.15,42.12,5.99,moderate rain
385,Kahului,20,US,2022-07-17 17:52:29,68,20.8947,-156.47,80.83,13.0,few clouds
386,Batagay-Alyta,100,RU,2022-07-17 17:53:53,81,67.8006,130.4114,49.28,1.25,overcast clouds
387,Krasnyy Kut,0,RU,2022-07-17 17:53:54,51,50.95,46.9667,73.47,5.77,clear sky
388,Uyemskiy,20,RU,2022-07-17 17:53:54,63,64.4743,40.8524,66.25,2.24,few clouds
389,Berlevag,100,NO,2022-07-17 17:53:55,87,70.8578,29.0864,55.4,4.61,overcast clouds
390,Santiago Del Estero,0,AR,2022-07-17 17:53:55,22,-27.7951,-64.2615,64.49,15.08,clear sky
391,Walvis Bay,13,NA,2022-07-17 17:53:55,43,-22.9575,14.5053,68.83,10.85,few clouds
392,Vestmanna,100,FO,2022-07-17 17:53:55,93,62.1564,-7.1664,49.12,10.36,overcast clouds
393,Jaumave,6,MX,2022-07-17 17:53:56,27,23.4167,-99.3833,90.93,6.96,clear sky
394,Poso,99,ID,2022-07-17 17:53:56,87,-1.3959,120.7524,76.1,3.22,overcast clouds
395,Gigmoto,86,PH,2022-07-17 17:53:56,84,13.7796,124.39,80.13,2.33,overcast clouds
396,Basqal,0,AZ,2022-07-17 17:53:57,34,40.7552,48.391,75.33,8.25,clear sky
397,Yulara,19,AU,2022-07-17 17:53:58,26,-25.2406,130.9889,50.05,9.62,few clouds
398,Vieques,40,PR,2022-07-17 17:53:58,66,18.425,-65.8329,89.85,20.71,haze
399,Hibbing,1,US,2022-07-17 17:53:58,50,47.4272,-92.9377,82.0,5.39,clear sky
400,Nizhniy Baskunchak,32,RU,2022-07-17 17:53:59,34,48.2198,46.8311,82.94,16.22,scattered clouds
401,Laguna,0,US,2022-07-17 17:53:59,43,38.421,-121.4238,98.94,4.0,clear sky
402,Turtas,84,RU,2022-07-17 17:53:59,66,58.9417,69.1325,61.32,3.87,broken clouds
403,Wukari,100,NG,2022-07-17 17:54:00,77,7.85,9.7833,77.11,2.75,overcast clouds
404,Karratha,1,AU,2022-07-17 17:54:00,64,-20.7377,116.8463,65.75,6.11,clear sky
405,North Platte,0,US,2022-07-17 17:51:02,45,41.1239,-100.7654,87.69,4.61,clear sky
406,Nabire,100,ID,2022-07-17 17:54:00,97,-3.3667,135.4833,74.16,3.51,overcast clouds
407,Suez,0,EG,2022-07-17 17:54:01,41,29.9737,32.5263,82.29,13.18,clear sky
408,Mopti,64,ML,2022-07-17 17:54:01,45,14.6667,-4.0,89.96,3.85,broken clouds
409,San Roque,0,ES,2022-07-17 17:54:02,54,36.2107,-5.3842,79.63,13.8,clear sky
410,Chongwe,52,ZM,2022-07-17 17:54:02,52,-15.3292,28.682,57.69,6.51,broken clouds
411,Hami,8,CN,2022-07-17 17:54:02,23,42.8,93.45,83.25,4.12,clear sky
412,Jiblah,85,YE,2022-07-17 17:54:03,41,13.9216,44.1467,69.33,6.82,overcast clouds
413,Aykhal,100,RU,2022-07-17 17:50:36,97,66.0,111.5,49.08,2.35,overcast clouds
414,Rio Pardo De Minas,6,BR,2022-07-17 17:54:04,27,-15.6097,-42.5397,84.38,9.69,clear sky
415,Ucluelet,70,CA,2022-07-17 17:54:04,89,48.9329,-125.5528,61.11,1.01,broken clouds
416,Pevek,100,RU,2022-07-17 17:54:04,94,69.7008,170.3133,31.03,35.19,light snow
417,Iqaluit,100,CA,2022-07-17 17:55:05,87,63.7506,-68.5145,46.13,9.22,light rain
418,Faanui,62,PF,2022-07-17 17:55:05,72,-16.4833,-151.75,76.59,19.1,light rain
419,Mago,100,RU,2022-07-17 17:55:06,72,53.2514,140.1822,57.99,4.45,overcast clouds
420,Katangli,100,RU,2022-07-17 17:55:06,92,51.7102,143.2326,51.66,15.64,overcast clouds
421,Fare,78,PF,2022-07-17 17:55:07,70,-16.7,-151.0167,76.44,17.85,light rain
422,Broome,30,US,2022-07-17 17:55:08,51,42.2506,-75.833,89.02,4.0,scattered clouds
423,Shubarshi,0,KZ,2022-07-17 17:55:08,27,48.5872,57.1869,84.07,7.36,clear sky
424,Bolshoy Lug,42,RU,2022-07-17 17:55:08,90,52.0779,104.0919,55.58,3.6,scattered clouds
425,Lubango,4,AO,2022-07-17 17:55:09,35,-14.9172,13.4925,59.22,4.05,clear sky
426,Mosjoen,75,NO,2022-07-17 17:55:09,87,65.836,13.1908,53.71,3.44,broken clouds
427,Banda Aceh,84,ID,2022-07-17 17:54:57,81,5.5577,95.3222,79.74,4.59,broken clouds
428,Dukat,100,RU,2022-07-17 17:55:10,93,62.55,155.55,50.83,4.74,light rain
429,Madaoua,88,NE,2022-07-17 17:55:10,50,14.073,5.96,86.54,14.65,overcast clouds
430,Geraldton,40,AU,2022-07-17 17:55:10,94,-28.7667,114.6,54.01,8.05,scattered clouds
431,Warmbad,8,NA,2022-07-17 17:55:11,24,-28.45,18.7333,67.84,10.63,clear sky
432,Idaho Falls,23,US,2022-07-17 17:54:01,11,43.4666,-112.0341,97.63,11.61,few clouds
433,Masuguru,88,TZ,2022-07-17 17:55:11,44,-11.3667,38.4167,78.04,5.55,overcast clouds
434,Wamba,100,NG,2022-07-17 17:55:12,92,8.9333,8.6,72.07,2.15,overcast clouds
435,Pemba,21,MZ,2022-07-17 17:55:12,76,-12.974,40.5178,74.16,12.64,light rain
436,Port Moresby,23,PG,2022-07-17 17:52:04,89,-9.4431,147.1797,74.41,4.38,few clouds
437,Nadym,52,RU,2022-07-17 17:55:13,65,65.5333,72.5167,58.35,10.96,broken clouds
438,Stykkisholmur,88,IS,2022-07-17 17:55:14,79,65.0757,-22.7297,52.41,5.57,overcast clouds
439,Kefamenanu,82,ID,2022-07-17 17:55:15,89,-9.4467,124.4781,65.01,3.47,broken clouds
440,Hervey Bay,100,AU,2022-07-17 17:54:58,76,-25.2986,152.8535,61.99,5.75,overcast clouds
441,Wetaskiwin,88,CA,2022-07-17 17:55:15,71,52.9668,-113.3687,66.67,3.36,overcast clouds
442,Olavarria,24,AR,2022-07-17 17:55:16,46,-36.8927,-60.3225,55.02,19.48,few clouds
443,Ponta Delgada,75,PT,2022-07-17 17:55:17,88,37.7333,-25.6667,70.52,17.27,broken clouds
444,Novikovo,97,RU,2022-07-17 17:55:17,72,51.1537,37.8879,61.02,5.23,overcast clouds
445,Khuzhir,27,RU,2022-07-17 17:55:17,84,53.1939,107.3397,52.14,1.23,scattered clouds
446,Nuevo Laredo,0,MX,2022-07-17 17:50:25,30,27.4763,-99.5164,97.07,14.97,clear sky
447,Ganzhou,95,CN,2022-07-17 17:55:18,82,28.8184,115.4327,78.57,2.1,overcast clouds
448,Naze,100,JP,2022-07-17 17:55:18,84,28.3667,129.4833,79.72,16.4,overcast clouds
449,Emerald,54,AU,2022-07-17 17:55:19,80,-23.5333,148.1667,57.34,5.99,broken clouds
450,Marystown,100,CA,2022-07-17 17:55:19,68,47.1666,-55.1483,69.03,11.79,overcast clouds
451,Portland,75,US,2022-07-17 17:50:46,55,45.5234,-122.6762,72.81,8.05,broken clouds
452,Slave Lake,75,CA,2022-07-17 17:54:05,68,55.2834,-114.769,66.18,5.75,broken clouds
453,Escanaba,0,US,2022-07-17 17:55:20,61,45.7453,-87.0646,85.51,5.75,clear sky
454,Noumea,44,NC,2022-07-17 17:55:21,99,-22.2763,166.4572,72.0,7.81,scattered clouds
455,Cradock,4,ZA,2022-07-17 17:55:21,35,-32.1642,25.6192,58.59,10.09,clear sky
456,Saint-Joseph,64,RE,2022-07-17 17:55:21,76,-21.3667,55.6167,66.58,17.13,light rain
457,Cascais,20,PT,2022-07-17 17:51:52,61,38.6979,-9.4215,80.62,13.8,few clouds
458,Portree,100,GB,2022-07-17 17:55:22,88,57.4129,-6.1942,62.53,4.41,overcast clouds
459,Muskegon,40,US,2022-07-17 17:55:22,67,43.3,-86.1334,80.94,8.05,scattered clouds
460,Kirakira,27,SB,2022-07-17 17:56:23,83,-10.4544,161.9205,79.54,10.51,scattered clouds
461,Sao Filipe,31,CV,2022-07-17 17:56:24,79,14.8961,-24.4956,76.1,15.32,scattered clouds
462,Caxito,82,AO,2022-07-17 17:56:24,82,-8.5785,13.6643,70.2,7.31,broken clouds
463,Tari,94,NG,2022-07-17 17:56:24,68,12.4086,4.4914,81.95,7.99,overcast clouds
464,Garmsar,0,IR,2022-07-17 17:56:24,14,35.2182,52.3409,93.38,8.43,clear sky
465,Vila,21,PT,2022-07-17 17:56:25,45,42.0304,-8.1588,79.7,5.73,few clouds
466,Phetchabun,41,TH,2022-07-17 17:56:25,89,16.25,101.0833,78.69,2.62,scattered clouds
467,Olden,91,NO,2022-07-17 17:56:26,83,61.8364,6.8064,61.54,7.09,overcast clouds
468,Alofi,24,NU,2022-07-17 17:56:26,94,-19.0595,-169.9187,71.49,5.75,few clouds
469,Yerbogachen,93,RU,2022-07-17 17:56:26,78,61.2767,108.0108,57.4,2.59,overcast clouds
470,Boyolangu,82,ID,2022-07-17 17:56:27,92,-8.1181,111.8935,72.48,3.11,broken clouds
471,Cabo San Lucas,11,MX,2022-07-17 17:52:16,59,22.8909,-109.9124,92.61,6.02,few clouds
472,Repatriacion,17,PY,2022-07-17 17:56:27,49,-25.5333,-55.95,60.93,4.12,few clouds
473,Uvat,70,RU,2022-07-17 17:56:28,69,59.1433,68.8953,59.7,3.74,broken clouds
474,Ler,95,SS,2022-07-17 17:56:28,71,8.3018,30.1418,78.21,2.89,overcast clouds
475,Bocana De Paiwas,56,NI,2022-07-17 17:56:29,80,12.7857,-85.1227,81.23,13.35,broken clouds
476,Szihalom,77,HU,2022-07-17 17:56:29,25,47.7667,20.4833,74.75,7.85,broken clouds
477,Labuhan,100,ID,2022-07-17 17:53:03,86,-6.8844,112.2051,77.34,12.28,overcast clouds
478,Itaituba,40,BR,2022-07-17 17:56:30,49,-4.2761,-55.9836,95.16,9.22,scattered clouds
479,Sartell,75,US,2022-07-17 17:52:32,66,45.6216,-94.2069,83.32,1.99,broken clouds
480,Talcahuano,100,CL,2022-07-17 17:56:30,93,-36.7167,-73.1167,51.48,9.22,overcast clouds
481,Mandalgovi,91,MN,2022-07-17 17:56:30,34,45.7625,106.2708,67.78,8.97,overcast clouds
482,Pasco,52,US,2022-07-17 17:54:11,66,28.292,-82.4165,92.01,1.99,broken clouds
483,Adelaide,40,AU,2022-07-17 17:56:23,87,-34.9333,138.6,49.32,3.44,scattered clouds
484,Sala,75,MA,2022-07-17 17:56:31,78,34.0389,-6.8166,75.88,5.75,broken clouds
485,Poum,33,NC,2022-07-17 17:56:31,73,-20.2333,164.0167,72.93,18.54,scattered clouds
486,Airai,31,TL,2022-07-17 17:56:32,84,-8.9266,125.4092,53.1,2.51,scattered clouds
487,Saint-Augustin,100,CA,2022-07-17 17:56:32,72,51.226,-58.6502,66.04,19.3,overcast clouds
488,Mount Pleasant,0,US,2022-07-17 17:56:32,80,32.7941,-79.8626,87.31,9.22,clear sky
489,Hohhot,0,CN,2022-07-17 17:56:33,37,40.8106,111.6522,66.49,6.71,clear sky
490,San Vicente,43,AR,2022-07-17 17:56:33,48,-26.6167,-54.1333,58.05,3.74,scattered clouds
491,Gazojak,0,TM,2022-07-17 17:56:33,10,41.1875,61.4036,96.6,16.93,clear sky
492,Khovu-Aksy,94,RU,2022-07-17 17:56:34,82,51.1333,93.6,56.98,1.9,overcast clouds
493,San Cristobal,78,VE,2022-07-17 17:56:34,58,7.7669,-72.225,80.78,7.31,broken clouds
494,Payson,0,US,2022-07-17 17:56:32,29,40.0444,-111.7321,96.55,1.99,clear sky
495,Douglas,40,US,2022-07-17 17:56:34,64,41.3,-96.167,84.51,5.75,scattered clouds
496,Mamlyutka,100,KZ,2022-07-17 17:56:35,95,54.9375,68.5394,61.65,6.96,light rain
497,Chulym,2,RU,2022-07-17 17:56:35,90,55.0997,80.9572,52.5,7.63,clear sky
498,Aksu,0,CN,2022-07-17 17:56:35,28,41.1231,80.2644,80.02,10.25,clear sky
499,Cartagena,75,CO,2022-07-17 17:56:36,70,10.3997,-75.5144,87.42,10.36,broken clouds
500,Hovd,71,MN,2022-07-17 17:56:36,37,48.0056,91.6419,67.6,9.31,broken clouds
501,Persianovskiy,0,RU,2022-07-17 17:56:36,47,47.5137,40.1075,84.56,6.71,clear sky
502,Kommunar,98,RU,2022-07-17 17:56:37,93,59.6206,30.39,58.55,6.17,overcast clouds
503,Soyo,93,AO,2022-07-17 17:56:37,84,-6.1349,12.3689,71.19,9.69,overcast clouds
504,Evensk,100,RU,2022-07-17 17:56:38,97,61.95,159.2333,52.83,2.8,light rain
505,Yashkul,30,RU,2022-07-17 17:56:38,27,46.1711,45.3435,88.81,19.6,scattered clouds
506,Hauterive,39,FR,2022-07-17 17:56:38,34,46.0901,3.4459,86.76,4.63,scattered clouds
507,Manchester,90,GB,2022-07-17 18:05:07,34,53.4809,-2.2374,87.58,6.91,overcast clouds
508,Rock Springs,0,US,2022-07-17 18:01:06,23,41.5875,-109.2029,91.24,1.99,clear sky
509,Izumo,96,JP,2022-07-17 18:05:30,83,35.3667,132.7667,75.25,10.45,overcast clouds
510,Creel,89,MX,2022-07-17 18:05:31,40,27.75,-107.6333,74.08,8.97,overcast clouds
511,Lorengau,90,PG,2022-07-17 18:05:31,80,-2.0226,147.2712,81.5,9.71,heavy intensity rain
512,Zaltan,0,LY,2022-07-17 18:05:31,67,32.947,11.8665,80.35,16.33,clear sky
513,Invermere,1,CA,2022-07-17 18:05:32,37,50.5167,-116.0354,77.36,5.46,clear sky
514,Grants,24,US,2022-07-17 18:05:33,28,35.1473,-107.8514,84.43,6.91,few clouds
515,Lesnoye,95,RU,2022-07-17 18:05:33,73,58.2841,35.5158,59.18,2.59,overcast clouds
516,Linhares,68,BR,2022-07-17 18:02:34,55,-19.3911,-40.0722,80.51,6.93,broken clouds
517,Kathmandu,75,NP,2022-07-17 18:03:01,83,27.7167,85.3167,75.42,3.44,broken clouds
518,Tupaciguara,19,BR,2022-07-17 18:05:33,24,-18.5922,-48.705,86.31,7.34,few clouds
519,Port Augusta,47,AU,2022-07-17 18:05:34,86,-32.5,137.7667,46.83,5.14,scattered clouds
520,Viedma,42,AR,2022-07-17 18:05:34,36,-40.8135,-62.9967,54.77,28.5,scattered clouds
521,Necochea,6,AR,2022-07-17 18:02:24,38,-38.5473,-58.7368,56.84,18.88,clear sky
522,Kalmunai,100,LK,2022-07-17 18:05:34,81,7.4167,81.8167,81.84,2.86,overcast clouds
523,Samdrup Jongkhar,68,BT,2022-07-17 18:05:35,93,26.9167,91.6167,73.18,3.49,broken clouds
524,Muros,74,ES,2022-07-17 18:05:35,77,42.7762,-9.0603,84.16,2.35,broken clouds
525,La Roda,0,ES,2022-07-17 18:05:36,15,39.2167,-2.15,97.0,15.28,clear sky
526,Marsh Harbour,72,BS,2022-07-17 18:05:36,73,26.5412,-77.0636,84.04,17.2,broken clouds
527,Ola,99,RU,2022-07-17 18:05:36,97,59.5833,151.2833,53.33,5.93,overcast clouds
528,Constitucion,100,CL,2022-07-17 18:05:37,91,-35.3333,-72.4167,48.67,13.58,moderate rain
529,Babu,100,CN,2022-07-17 18:05:37,94,24.4167,111.5167,79.14,3.2,overcast clouds
530,Havre-Saint-Pierre,81,CA,2022-07-17 18:05:37,79,50.2334,-63.5986,61.7,21.07,broken clouds
531,Ouadda,100,CF,2022-07-17 18:05:38,96,8.0777,22.4007,68.61,3.85,overcast clouds
532,Novobiryusinskiy,96,RU,2022-07-17 18:05:38,62,56.9578,97.7076,60.93,8.77,overcast clouds
533,Rocha,0,UY,2022-07-17 18:05:38,55,-34.4833,-54.3333,53.08,14.07,clear sky
534,Sibolga,9,ID,2022-07-17 18:05:39,83,1.7427,98.7792,76.23,3.2,clear sky
535,Aguimes,40,ES,2022-07-17 18:05:39,65,27.9054,-15.4461,75.67,34.52,scattered clouds
536,Rio Verde De Mato Grosso,72,BR,2022-07-17 18:05:40,37,-18.9181,-54.8442,87.76,0.92,broken clouds
537,Bayanday,67,RU,2022-07-17 18:05:52,94,53.0661,105.5139,51.21,2.28,broken clouds
538,Alexandria,0,EG,2022-07-17 18:05:52,74,31.2156,29.9553,78.73,10.65,clear sky
539,Nouadhibou,3,MR,2022-07-17 18:05:53,86,20.931,-17.0347,69.67,32.86,clear sky
540,Lyubech,29,UA,2022-07-17 18:05:59,91,51.7026,30.6569,53.92,7.2,light rain
541,Nuuk,100,GL,2022-07-17 18:06:00,71,64.1835,-51.7216,50.61,28.77,overcast clouds
542,Sens,80,FR,2022-07-17 18:06:01,15,48.1667,3.3333,89.91,9.26,broken clouds
543,Kattivakkam,100,IN,2022-07-17 18:06:21,85,13.2167,80.3167,86.09,13.94,overcast clouds
544,Salas,28,ES,2022-07-17 18:06:21,58,43.4118,-6.2602,69.35,4.56,scattered clouds
545,Hay River,100,CA,2022-07-17 18:06:21,45,60.8156,-115.7999,73.08,7.47,overcast clouds
546,Wolgast,28,DE,2022-07-17 18:06:22,56,54.05,13.7667,70.86,11.18,scattered clouds
547,Dmitriyevka,98,RU,2022-07-17 18:06:22,81,54.75,55.3333,72.95,2.21,light rain
548,Seminole,40,US,2022-07-17 18:06:22,68,28.7086,-81.2081,94.14,5.75,scattered clouds
549,Partsa,66,RU,2022-07-17 18:07:23,97,54.3653,42.8617,61.9,4.63,light rain
550,Hasaki,54,JP,2022-07-17 18:07:23,90,35.7333,140.8333,75.6,9.64,broken clouds
551,Ketchikan,100,US,2022-07-17 18:07:23,88,55.3422,-131.6461,57.67,12.66,overcast clouds
552,Vondrozo,3,MG,2022-07-17 18:07:24,90,-22.8167,47.2833,54.93,2.08,clear sky
553,Bayji,0,IQ,2022-07-17 18:07:24,13,34.9311,43.487,98.26,10.36,clear sky
554,Usinsk,99,RU,2022-07-17 18:07:24,90,65.9939,57.5281,63.27,1.23,overcast clouds
555,Guabito,66,PA,2022-07-17 18:07:25,65,9.5,-82.6167,85.12,6.24,broken clouds
556,Garoua,99,CM,2022-07-17 18:07:25,88,9.3,13.4,74.48,5.5,overcast clouds
557,Mandla,39,IN,2022-07-17 18:07:25,87,22.6,80.3833,78.21,3.56,scattered clouds
558,Zeya,100,RU,2022-07-17 18:07:26,96,53.75,127.2667,63.14,1.83,overcast clouds
559,Tsuruoka,24,JP,2022-07-17 18:07:26,93,38.7217,139.8217,70.95,5.37,few clouds
560,Tazovskiy,99,RU,2022-07-17 18:07:26,66,67.4667,78.7,57.76,0.09,overcast clouds
561,Faya,72,SA,2022-07-17 18:07:27,39,18.3851,42.4509,68.52,5.95,broken clouds
562,Monywa,100,MM,2022-07-17 18:07:27,57,22.1167,95.1333,89.33,16.04,overcast clouds
563,Belmonte,25,BR,2022-07-17 18:07:28,68,-15.8631,-38.8828,77.49,7.87,scattered clouds
564,Vardo,0,NO,2022-07-17 18:07:28,82,70.3705,31.1107,55.38,3.44,clear sky
565,Saint-Pierre,40,RE,2022-07-17 18:07:29,72,-21.3393,55.4781,69.91,14.97,scattered clouds
566,Ndele,100,CF,2022-07-17 18:07:29,98,8.4109,20.6473,69.66,3.62,overcast clouds
567,Huangpi,24,CN,2022-07-17 18:07:29,92,30.8845,114.3779,78.66,3.85,few clouds
568,Klyuchi,3,RU,2022-07-17 18:07:30,61,52.2667,79.1667,61.99,13.56,clear sky
569,Luanda,70,AO,2022-07-17 18:04:49,87,-8.8368,13.2343,69.15,16.55,broken clouds
570,Bokovskaya,75,RU,2022-07-17 18:07:30,55,49.229,41.8306,75.79,4.81,broken clouds
571,Sinnamary,78,GF,2022-07-17 18:07:31,71,5.3833,-52.95,82.35,6.55,broken clouds
572,Shimoda,59,JP,2022-07-17 18:07:31,92,34.6667,138.95,73.11,11.59,broken clouds
573,Varhaug,100,NO,2022-07-17 18:07:31,96,58.6147,5.6457,56.89,15.68,light rain
574,Bilibino,47,RU,2022-07-17 18:07:32,71,68.0546,166.4372,30.83,17.02,scattered clouds
575,Huntsville,75,US,2022-07-17 18:03:25,55,34.7304,-86.5861,93.88,5.75,broken clouds
576,Canatlan,22,MX,2022-07-17 18:07:32,24,24.5167,-104.7833,80.19,11.83,few clouds
577,Lively,0,CA,2022-07-17 18:07:33,45,46.4334,-81.1498,81.01,5.7,clear sky
578,Bati,100,ET,2022-07-17 18:07:33,47,11.1833,40.0167,75.94,1.21,overcast clouds
579,Totma,100,RU,2022-07-17 18:07:33,89,59.9747,42.7642,56.59,2.08,overcast clouds
580,Carauari,32,BR,2022-07-17 18:07:34,46,-4.8828,-66.8958,91.89,5.19,scattered clouds
581,Kochubey,3,RU,2022-07-17 18:07:35,36,44.3861,46.5825,87.39,6.8,clear sky
582,Quartucciu,0,IT,2022-07-17 18:07:35,61,39.2519,9.1794,85.01,11.5,clear sky
583,Kihei,0,US,2022-07-17 18:07:35,65,20.785,-156.4656,82.42,13.8,clear sky
584,Mwinilunga,8,ZM,2022-07-17 18:07:36,42,-11.7358,24.4293,59.67,5.17,clear sky
585,Tenamaxtlan,90,MX,2022-07-17 18:07:36,56,20.2167,-104.1667,76.73,2.89,overcast clouds
586,Beryslav,86,UA,2022-07-17 18:07:36,38,46.8415,33.4284,73.94,10.71,overcast clouds
587,Maningrida,94,AU,2022-07-17 18:07:37,96,-12.0667,134.2667,62.44,7.23,overcast clouds
588,Kolbermoor,26,DE,2022-07-17 18:07:37,73,47.85,12.0667,73.22,2.21,scattered clouds
589,Whitehorse,100,CA,2022-07-17 18:07:38,87,60.7161,-135.0538,53.02,17.0,overcast clouds
590,Vuktyl,84,RU,2022-07-17 18:07:38,91,63.8567,57.3094,61.72,1.74,broken clouds
591,Bridlington,98,GB,2022-07-17 18:07:39,56,54.0831,-0.1919,85.93,9.95,overcast clouds
592,Kieta,41,PG,2022-07-17 18:07:39,84,-6.2167,155.6333,78.44,5.26,scattered clouds
593,Turan,20,VN,2022-07-17 18:08:58,89,16.0678,108.2208,78.78,4.61,few clouds
594,Saryg-Sep,94,RU,2022-07-17 18:08:59,87,51.5,95.6,55.06,2.8,overcast clouds
595,Sao Joaquim,65,BR,2022-07-17 18:09:00,59,-28.2939,-49.9317,50.41,4.74,broken clouds
596,Ipixuna,66,BR,2022-07-17 18:09:01,44,-1.7625,-48.8043,91.74,2.42,broken clouds
597,Smidovich,48,RU,2022-07-17 18:09:04,95,48.6,133.8167,61.95,5.06,scattered clouds
598,San Blas,99,MX,2022-07-17 18:09:04,62,21.5167,-105.2667,89.49,2.42,overcast clouds
599,Tevaitoa,82,PF,2022-07-17 18:09:05,71,-16.7833,-151.5,76.35,19.37,broken clouds
600,Sao Jose Da Coroa Grande,25,BR,2022-07-17 18:09:05,75,-8.8978,-35.1478,77.38,13.42,scattered clouds
601,Damghan,0,IR,2022-07-17 18:09:05,28,36.1683,54.348,84.97,5.93,clear sky
602,Mount Isa,3,AU,2022-07-17 18:09:06,81,-20.7333,139.5,47.97,0.0,clear sky
603,Shubarkuduk,8,KZ,2022-07-17 18:09:06,35,49.1447,56.4872,82.0,7.34,clear sky
604,Beringovskiy,60,RU,2022-07-17 18:09:06,66,63.05,179.3167,51.71,32.1,broken clouds
605,Rawson,70,AR,2022-07-17 18:09:07,45,-43.3002,-65.1023,51.66,22.75,broken clouds
606,Sao Sebastiao,83,BR,2022-07-17 18:09:07,90,-23.76,-45.4097,70.74,9.91,broken clouds
607,Kuusamo,75,FI,2022-07-17 18:09:08,77,65.9667,29.1833,59.04,4.61,broken clouds
608,Okato,98,NZ,2022-07-17 18:09:28,94,-39.2,173.8833,52.18,17.0,overcast clouds
609,Boa Vista,75,BR,2022-07-17 18:07:17,49,2.8197,-60.6733,91.38,8.05,broken clouds
610,Chapais,79,CA,2022-07-17 18:09:29,31,49.7834,-74.8492,77.68,8.03,broken clouds
611,Jacareacanga,37,BR,2022-07-17 18:09:30,26,-6.2222,-57.7528,99.82,4.56,scattered clouds
612,Rock Sound,26,BS,2022-07-17 18:09:30,78,24.9,-76.2,82.71,18.43,scattered clouds
613,Gari,79,RU,2022-07-17 18:09:31,95,59.4307,62.3497,57.74,2.77,broken clouds
614,Hammerfest,75,NO,2022-07-17 18:08:29,100,70.6634,23.6821,48.65,10.36,broken clouds
615,Gannan,100,CN,2022-07-17 18:09:31,96,47.9147,123.5031,64.74,5.37,overcast clouds
616,Bangkalan,100,ID,2022-07-17 18:09:32,84,-7.0455,112.7351,78.75,9.22,overcast clouds
617,Aripuana,20,BR,2022-07-17 18:09:32,24,-9.1667,-60.6333,99.19,5.39,few clouds
618,Belyy Yar,40,RU,2022-07-17 18:09:37,77,53.6039,91.3903,66.09,13.42,light rain
619,Wajima,78,JP,2022-07-17 18:09:38,89,37.4,136.9,74.62,9.6,broken clouds
620,Sept-Iles,59,CA,2022-07-17 18:06:03,67,50.2001,-66.3821,68.05,5.99,broken clouds
621,Tornio,82,FI,2022-07-17 18:09:38,77,65.8481,24.1466,59.02,7.81,broken clouds
622,Payo,93,ID,2022-07-17 18:09:39,94,-3.7508,103.6372,73.53,2.19,overcast clouds
623,Koppa,100,IN,2022-07-17 18:09:40,96,13.5304,75.3633,68.58,4.76,light rain
624,Guilin,100,CN,2022-07-17 18:09:42,93,25.2819,110.2864,79.74,0.56,overcast clouds
625,Solnechnyy,91,RU,2022-07-17 18:09:42,78,50.7214,136.6319,60.12,3.29,overcast clouds
626,Choma,0,ZM,2022-07-17 18:09:43,50,-16.8065,26.9531,52.79,2.68,clear sky
627,Itarema,46,BR,2022-07-17 18:09:44,63,-2.9248,-39.9167,85.33,17.74,scattered clouds
628,Petropavlovsk-Kamchatskiy,100,RU,2022-07-17 18:09:44,100,53.0452,158.6483,53.78,2.24,mist
629,Panshi,75,CN,2022-07-17 18:09:45,98,42.9422,126.0561,63.82,3.89,broken clouds
630,Tura,65,IN,2022-07-17 18:09:45,92,25.5198,90.2201,76.73,5.57,broken clouds
631,Pangkalanbuun,95,ID,2022-07-17 18:07:31,98,-2.6833,111.6167,69.91,2.55,overcast clouds
632,Barcelona,0,ES,2022-07-17 18:06:46,57,41.3888,2.159,95.14,6.91,clear sky
633,Plastun,85,RU,2022-07-17 18:09:47,92,44.7561,136.2939,58.8,2.42,overcast clouds
634,Mana,70,GF,2022-07-17 18:06:14,73,5.6592,-53.7767,82.62,7.63,broken clouds
635,Mul,100,IN,2022-07-17 18:09:47,96,20.0667,79.6667,75.87,9.04,light rain
636,Praya,5,CV,2022-07-17 18:09:48,69,14.9215,-23.5087,79.72,15.93,clear sky
637,Unity,71,CA,2022-07-17 18:09:48,58,52.4501,-109.1682,74.25,10.83,broken clouds
638,Yalta,13,UA,2022-07-17 18:09:48,80,44.5,34.1667,73.47,10.02,few clouds
639,Korla,50,CN,2022-07-17 18:09:49,28,41.7597,86.1469,78.64,7.99,scattered clouds
640,Richards Bay,0,ZA,2022-07-17 18:07:34,80,-28.783,32.0377,66.79,11.83,clear sky
641,Ewa Beach,75,US,2022-07-17 18:11:45,71,21.3156,-158.0072,80.55,13.0,broken clouds
642,Zhigansk,100,RU,2022-07-17 18:11:46,68,66.7697,123.3711,54.5,12.01,overcast clouds
643,Newport,85,GB,2022-07-17 18:06:52,38,51.5877,-2.9984,83.98,8.32,overcast clouds
644,Kolokani,54,ML,2022-07-17 18:11:46,79,13.5728,-8.0339,76.46,3.8,heavy intensity rain
645,Hyvinkaa,79,FI,2022-07-17 18:11:47,78,60.6333,24.8667,57.88,1.99,broken clouds
646,Touros,67,BR,2022-07-17 18:11:18,75,-5.1989,-35.4608,80.44,17.25,broken clouds
647,Tigil,9,RU,2022-07-17 18:11:48,84,57.8,158.6667,54.59,11.45,clear sky
648,Merauke,100,ID,2022-07-17 18:11:49,88,-8.4667,140.3333,75.49,10.33,overcast clouds
649,Susanville,0,US,2022-07-17 18:06:53,27,40.4163,-120.653,86.13,5.01,clear sky
650,Caravelas,6,BR,2022-07-17 18:08:56,63,-17.7125,-39.2481,78.21,7.72,clear sky
651,Morgan City,12,US,2022-07-17 18:11:51,51,29.6994,-91.2068,91.0,1.34,few clouds
652,Buchanan,99,LR,2022-07-17 18:11:51,83,5.8808,-10.0467,77.07,12.55,overcast clouds
653,Jensen Beach,55,US,2022-07-17 18:11:52,80,27.2545,-80.2298,91.08,7.0,broken clouds
654,Arvika,91,SE,2022-07-17 18:11:52,47,59.6553,12.5852,66.81,10.0,overcast clouds
655,Westport,0,US,2022-07-17 18:11:35,63,41.1415,-73.3579,87.44,9.22,clear sky
656,Kiruna,75,SE,2022-07-17 18:11:53,81,67.8557,20.2251,47.32,5.75,broken clouds
657,Hallein,0,AT,2022-07-17 18:11:54,46,47.6833,13.1,76.78,5.75,clear sky
658,Klaksvik,81,FO,2022-07-17 18:11:54,84,62.2266,-6.589,50.92,22.93,broken clouds
659,Kaeo,86,NZ,2022-07-17 18:10:30,95,-35.1,173.7833,48.33,4.23,overcast clouds
660,Singanallur,75,IN,2022-07-17 18:11:55,88,11.0,77.0167,77.04,10.36,moderate rain
661,Roma,0,US,2022-07-17 18:11:56,48,43.2128,-75.4557,89.69,5.75,clear sky
662,Lavrentiya,100,RU,2022-07-17 18:11:58,94,65.5833,-171.0,46.65,9.51,overcast clouds
663,Spassk,100,RU,2022-07-17 18:11:58,99,52.747,87.7545,60.35,3.65,moderate rain
664,Broken Hill,7,AU,2022-07-17 18:11:59,91,-31.95,141.4333,42.31,7.25,clear sky
665,Huangnihe,100,CN,2022-07-17 18:11:59,98,43.5583,128.0239,60.13,4.59,overcast clouds
666,Svetlyy,85,RU,2022-07-17 18:10:10,73,54.675,20.1347,63.97,10.71,overcast clouds
667,Neya,57,RU,2022-07-17 18:12:00,84,58.2972,43.8681,58.57,4.07,broken clouds
668,Coxim,26,BR,2022-07-17 18:09:58,33,-18.5067,-54.76,90.3,3.67,scattered clouds
669,Ahipara,90,NZ,2022-07-17 18:12:00,84,-35.1667,173.1667,48.13,5.59,overcast clouds
670,Birjand,0,IR,2022-07-17 18:12:01,12,32.8663,59.2211,79.38,16.73,clear sky
671,Ormara,97,PK,2022-07-17 18:12:03,85,25.2088,64.6357,84.9,15.88,heavy intensity rain
672,Salou,0,ES,2022-07-17 18:09:14,55,41.0766,1.1416,90.25,5.99,clear sky
673,San Jose,0,US,2022-07-17 18:12:06,49,37.3394,-121.895,88.84,5.75,clear sky
674,Mporokoso,82,ZM,2022-07-17 18:12:09,37,-9.3727,30.125,66.85,4.99,broken clouds
675,Marienburg,83,PL,2022-07-17 18:12:10,59,54.0359,19.0266,66.88,8.05,broken clouds
676,Turinsk,83,RU,2022-07-17 18:12:10,95,58.0458,63.696,58.87,5.06,broken clouds
677,Farragut,0,US,2022-07-17 18:12:12,62,35.8845,-84.1535,90.73,6.91,clear sky
678,Ambunti,46,PG,2022-07-17 18:12:12,99,-4.2365,142.8448,72.21,1.28,scattered clouds
679,Aswan,32,EG,2022-07-17 18:12:13,14,24.0934,32.907,93.96,10.78,scattered clouds
680,Copiapo,0,CL,2022-07-17 18:12:14,20,-27.3667,-70.3333,60.49,4.09,clear sky
681,Culpeper,0,US,2022-07-17 18:12:16,70,38.5004,-77.9664,89.76,0.0,clear sky
682,Svendborg,92,DK,2022-07-17 18:12:20,73,55.0598,10.6068,64.49,14.72,overcast clouds
683,Lagunas,70,PE,2022-07-17 18:12:22,76,-5.2269,-75.6753,84.42,2.46,broken clouds
684,Kubachi,1,RU,2022-07-17 18:12:23,74,42.086,47.6034,63.45,5.32,clear sky
685,Ayakudi,100,IN,2022-07-17 18:12:43,62,10.45,77.55,80.87,9.28,moderate rain
686,Pathein,100,MM,2022-07-17 18:12:44,93,16.7833,94.7333,78.75,4.41,overcast clouds
687,Santiago De Cao,46,PE,2022-07-17 18:12:45,77,-7.9589,-79.2392,64.53,14.97,fog
688,Hirara,99,JP,2022-07-17 18:13:45,87,24.8,125.2833,84.76,22.95,overcast clouds
689,Bongandanga,92,CD,2022-07-17 18:13:46,94,1.5,21.05,73.38,3.71,moderate rain
